City,Latitude,Longitude,Total Cases,Deaths,Recoveries,Active Cases
Lahore,31.5204,74.3587,2500,900,769,"            350	"
Rawalpindi,33.5651,73.0169,1500,500,1000,222
Multan,30.1575,71.5249,870,260,700,500
Gugarat,22.2587,71.1924,1000,150,850,145
Kasur,31.1179,74.4408,450,150,300,100
Sargodha,32.074,72.6861,2250,700,1987,400
